[
  {
    "district": "Mumbai Suburban",
    "taluka": "Borivali",
    "village": "Borivali East",
    "incharge_name": "Prashant Chandrakant Pawar",
    "address": "Carter Road No 8 Near Ramdev Peer Mandir Borivali East Mumbai 400066",
    "contact_number": 9930802507,
    "email": "prashapawar[dot]gmail[dot]com",
    "map_link": "https://maps.app.goo.gl/Psy9u4eQPbcXtkov5",
    "latitude": 19.23035,
    "longitude": 72.85966
  },
  {
    "district": "Mumbai Suburban",
    "taluka": "Borivali",
    "village": "DAHISAR",
    "incharge_name": "SHRI RAM SATSANG SAMITI (AMIT TIWARI)",
    "address": "OFF W E HIGHWAY NR SHAILENDRA SCHOOL SHAILENDRA NAGAR",
    "contact_number": 9768461858,
    "email": "amittiwari155[dot]gmail[dot]com",
    "map_link": "https://maps.app.goo.gl/X1xe8pABfUSALmQk6",
    "latitude": 19.2457836,
    "longitude": 72.8637868
  },
  {
    "district": "Mumbai Suburban",
    "taluka": "Borivali",
    "village": "BORIVALI",
    "incharge_name": "Atish Naikwade",
    "address": "SHOP NO 5 INDIRA NAGAR, OPP TCS COMPANY, BORIVALI EAST,400066 KULUPWADI ROAD",
    "contact_number": 9702146367,
    "email": "atishnaikwade22[dot]gmail[dot]com",
    "map_link": "https://maps.app.goo.gl/dsa5XHC42Xo887mn9",
    "latitude": 19.226746,
    "longitude": 72.865951
  },
  {
    "district": "Mumbai Suburban",
    "taluka": "Andheri",
    "village": "ANDHERI",
    "incharge_name": "Puja Paresh Gujar",
    "address": "SHOP NO. 1, GARDEN VIEW HOS. SOC., D.N. ROAD, NEAR NAVRANG CENIMA, ANDHERI WEST",
    "contact_number": 9892750477,
    "email": "advpoojagajjar[dot]gmail[dot]com",
    "map_link": "https://maps.app.goo.gl/f1aKNTYfpxXmEgLVA",
    "latitude": 19.1255059,
    "longitude": 72.8233034
  },
  {
    "district": "Mumbai Suburban",
    "taluka": "Andheri",
    "village": "VAKOLA",
    "incharge_name": "JAYSHREE SHANKAR MUDLIAR",
    "address": "SHOP NO 1 MANTHAN PLAZA BMC MARKET,VAKOLA SANTACRUZ EAST",
    "contact_number": 9867174286,
    "email": "jayshreemudliar5[dot]gmail[dot]com",
    "map_link": "https://maps.app.goo.gl/UFGwUbYvQJdey2XR9",
    "latitude": 19.1342142,
    "longitude": 72.8130035
  },
  {
    "district": "Mumbai Suburban",
    "taluka": "Andheri",
    "village": "ANDHERI WEST",
    "incharge_name": "MEGHNA SHAILESH BAROT",
    "address": "SAHELEE CYBER, HARISH PREMISES NEAR AMRUT ROOP SANGAM STORE, NEAR ANDHERI RAILWAY STATION ANDHERI WEST,400058",
    "contact_number": "9833192324 / 9167923622",
    "email": "barot[dot]meghna[dot]gmail[dot]com",
    "map_link": "https://maps.app.goo.gl/52r5xqoDFecffgxUA",
    "latitude": 19.1199772,
    "longitude": 72.8462161
  },
  {
    "district": "Mumbai Suburban",
    "taluka": "Andheri",
    "village": "Andheri",
    "incharge_name": "Nehal Jayantilal Thadeshwar",
    "address": "OFFICE NO. 20, GROUND FLOOR MONA SHOPPING CENTRE NEAR NAVRANG CINEMA OFF ICICI BANK ANDHERI WEST",
    "contact_number": 9324499901,
    "email": "nehalthadeshwar[dot]live[dot]com",
    "map_link": "https://maps.app.goo.gl/QQhVo93dVLteYvUF6",
    "latitude": 19.1199885,
    "longitude": 72.8417099
  },
  {
    "district": "Mumbai Suburban",
    "taluka": "Andheri",
    "village": "ANDHERI EAST",
    "incharge_name": "ZAVERCHANDRA LALBHAI BAROT",
    "address": "SAHELEE GRAPHICS, M V ROAD, NEAR ANDHERI RAILWAY STATION NEAR ANDHERI METRO STATION ANDHERI EAST",
    "contact_number": "9324502760 / 9167923622",
    "email": "barotshailesh[dot]gmail[dot]com",
    "map_link": "https://maps.app.goo.gl/uzsAiXjmLoY6LtVr5",
    "latitude": 19.1200899,
    "longitude": 72.848455
  },
  {
    "district": "Mumbai Suburban",
    "taluka": "Andheri",
    "village": "kHAR EAST",
    "incharge_name": "Sachin Gajanan Thorat",
    "address": "Janadhar Foundation, Service Road, Khar East,400051 7 Shreenath Kumbhar Chawl Towards andheri side bus stop Khar East",
    "contact_number": 8082713879,
    "email": "sachingthorat61[dot]gmail[dot]com",
    "map_link": "https://maps.app.goo.gl/6ogCgMvUmjgsd3F8A",
    "latitude": 19.0679149,
    "longitude": 72.8462407
  },
  {
    "district": "Mumbai Suburban",
    "taluka": "Andheri",
    "village": "BANDRA",
    "incharge_name": "NAVNATH SHIVLING KHARATMAL",
    "address": "NIRANKARI ONLINE SERVICE AND STATIONERY, ROOM NO 1A CHAWL NO 54, BANDRA EAST,400051 SHOP NO 01 SHOP NO 01 CHAWL NO 54 SANT DYANESHWAR NAGAR BEHIND GOVT COLONY BANDRA EAST",
    "contact_number": 9833862504,
    "email": "print241218[dot]gmail[dot]com",
    "map_link": "https://maps.app.goo.gl/vUCEeUsDttPiUhXz7",
    "latitude": 19.0647637,
    "longitude": 72.8524657
  },
  {
    "district": "Mumbai Suburban",
    "taluka": "Andheri",
    "village": "Bandra",
    "incharge_name": "Mahesh Ganesh Yadav",
    "address": "digital hub 1 HARFUL GUPTA CHAWL MAROL NAKA NAVPADA, ANDHERI-KURLA ROAD Near Waterstone Hotel Andheri East",
    "contact_number": 7039958807,
    "email": "digitalhub59[dot]gmail[dot]com",
    "map_link": "https://maps.app.goo.gl/zbQFmRnUJpZr5tvdA",
    "latitude": 19.1084463,
    "longitude": 72.8774595
  },
  {
    "district": "Mumbai Suburban",
    "taluka": "Kurla",
    "village": "Powai",
    "incharge_name": "Shyam Krishachandra Maurya ",
    "address": "NICE COMPUTER INSTITUTE SHOP NO 7 TARA B WING SAKI VIHAR ROAD OPP L&T GATE NO 7 POWAI",
    "contact_number": 9820638997,
    "email": "nicecomputers[dot]gmail[dot]com",
    "map_link": "https://maps.app.goo.gl/dm8WSgK8dmNetHMKA",
    "latitude": 19.1221855,
    "longitude": 72.8914188
  },
  {
    "district": "Mumbai Suburban",
    "taluka": "Andheri",
    "village": "Manglewadi Santacruz West",
    "incharge_name": "SUNITA DATTA SHINDE",
    "address": "KRISHNA ENTERPRISES MANGELWADI JUHU TARA ROAD NEXT TO MAKER KUNDAN GARDEN SANTACRUZ WEST",
    "contact_number": 9766943066,
    "email": "krishent2021[dot]gmail[dot]com",
    "map_link": "https://maps.app.goo.gl/Ep3ePJbeWR1oR5TAA",
    "latitude": 19.0859259,
    "longitude": 72.8288519
  },
  {
    "district": "Mumbai Suburban",
    "taluka": "Andheri",
    "village": "KHAR EAST",
    "incharge_name": "SHYAMLAL GHANSHYAM PARDESHI",
    "address": "Old Maruti Temple Shukla Chawl Nirmal Nagar Police Officer Khar East",
    "contact_number": 9867922940,
    "email": "pardeshishyamlal[dot]gmail[dot]com",
    "map_link": "https://maps.app.goo.gl/2jTgWnQmFZDiyCMv5",
    "latitude": 19.085956,
    "longitude": 72.8185522
  },
  {
    "district": "Mumbai Suburban",
    "taluka": "Andheri",
    "village": "VARSOVA",
    "incharge_name": "Divyashri Dholay",
    "address": "Sankalp Siddhi Trust G9,Ground Floor, G7 Mall, Seven Bunglows, JP Road Near Versova Metro Station, Versova",
    "contact_number": 9892255752,
    "email": "dholaydivya[dot]gmail[dot]com",
    "map_link": "https://maps.app.goo.gl/biiSGk4bbQKpn7raA",
    "latitude": 19.1121049,
    "longitude": 72.8610731
  },
  {
    "district": "Mumbai Suburban",
    "taluka": "Borivali",
    "village": "Malad",
    "incharge_name": "Swarajya Seva Pratishthan Trust (Mahesh Manohar Farkase)",
    "address": "Shop No 8, vaishnavi heights balaji hospital back side Sun rise tower malad west",
    "contact_number": 9821591132,
    "email": "swarajyasevapt[dot]gmail[dot]com",
    "map_link": "https://maps.app.goo.gl/GEvCesaVsrSV1rdh9",
    "latitude": 19.1905923,
    "longitude": 72.8269833
  },
  {
    "district": "Mumbai Suburban",
    "taluka": "Borivali",
    "village": "Kandivali",
    "incharge_name": "Alam Shaikh",
    "address": "Adarsh janseva mandal, akurli road, opp banarasi hotel, hanuman nagar, kandivali east, mum 400101",
    "contact_number": 9028130129,
    "email": "alamshaikh077[dot]gmail[dot]com",
    "map_link": "https://maps.app.goo.gl/vYVCtEXUKqm7HicHA",
    "latitude": 19.1906322,
    "longitude": 72.8269833
  },
  {
    "district": "Mumbai Suburban",
    "taluka": "Borivali",
    "village": "Malvani",
    "incharge_name": "Abdul kadam Memon",
    "address": "PMC 259 Syulerd colony Gate no 6 malvani malad west",
    "contact_number": 9930853837,
    "email": "e-wordldholiday11[dot]gmail[dot]com",
    "map_link": "https://maps.app.goo.gl/DhkPMYw35UTybX6KA",
    "latitude": 19.1845037,
    "longitude": 72.8177985
  },
  {
    "district": "Mumbai Suburban",
    "taluka": "Borivali",
    "village": "Malavani",
    "incharge_name": "ABBAD MUHAMMAD KHALIL KHAN",
    "address": "Shop no 15pbt 55 gate no 7 malvani Malad West",
    "contact_number": 9833739496,
    "email": "abduljpm2[dot]gmail[dot]com",
    "map_link": "https://maps.app.goo.gl/gkMBneAqcEWt3rAb6",
    "latitude": 19.1845138,
    "longitude": 72.8177985
  },
  {
    "district": "Mumbai Suburban",
    "taluka": "Borivali",
    "village": "Kandivali",
    "incharge_name": "Vaibhav Sampat Sasane",
    "address": "Akurli sahayog soc. mhada colony Akurli road kadivali east",
    "contact_number": 7738365358,
    "email": "vabhav[dot]sasane358[dot]gmail[dot]com",
    "map_link": "https://maps.app.goo.gl/X63rAvonmLdtrqwVA",
    "latitude": 19.1845583,
    "longitude": 72.7997738
  },
  {
    "district": "Mumbai Suburban",
    "taluka": "Borivali",
    "village": "Malad",
    "incharge_name": "Yogesh Kandalgaonkar",
    "address": "Shop No.3 Manshi Tower CHS near Utkarsha Vidya Mandir Malad E 97",
    "contact_number": 9821125014,
    "email": "yk9821125014[dot]gmail[dot]com",
    "map_link": "https://maps.app.goo.gl/seRBCvD1FbpiHCMJA",
    "latitude": 19.1891069,
    "longitude": 72.8563227
  },
  {
    "district": "Mumbai Suburban",
    "taluka": "Borivali",
    "village": "Malad",
    "incharge_name": "Vishal Krishna Sawarkar",
    "address": "Vishal PrinterKarav village Malad East",
    "contact_number": 9967651533,
    "email": "vishal[dot]k[dot]sawarkar[dot]gmail[dot]com",
    "map_link": "https://maps.app.goo.gl/VZ1MSTNd16BcLwia6",
    "latitude": 19.189137,
    "longitude": 72.846023
  },
  {
    "district": "Mumbai Suburban",
    "taluka": "Borivali",
    "village": "Malad",
    "incharge_name": "Vijay Krisha Sawarkar",
    "address": "Badrinath Estate 2 laxman nagar policechowli kumarvillage Malad",
    "contact_number": 9869451572,
    "email": "chandavijay315[dot]gmail[dot]com",
    "map_link": "https://maps.app.goo.gl/rJQQSY47p7Pg4w989",
    "latitude": 19.1857803,
    "longitude": 72.8637991
  },
  {
    "district": "Mumbai Suburban",
    "taluka": "Andheri",
    "village": "VILEPARLE EAST",
    "incharge_name": "Ajay Nagbhai Patel",
    "address": "MAHA-E-SEVA CENTER, A/2,SAURABH SOCIETY, BACK OF SAIKRIPA TAILOR, SHAHAJI RAJE MARG, NEAR BHUTA SCHOOL, VILEPARLE (EAST), MUMBAI",
    "contact_number": 9987216625,
    "email": "ajaypatel7519[dot]gmail[dot]com",
    "map_link": "https://maps.app.goo.gl/qHgAR36YhcvKbbYD9",
    "latitude": 19.1859341,
    "longitude": 72.7813981
  },
  {
    "district": "Mumbai Suburban",
    "taluka": "Borivali",
    "village": "Kandivali",
    "incharge_name": "Ravi B Shukla",
    "address": "Lakhna varth chawl janupada vaibhavnagar thakur village kandivali east 400101",
    "contact_number": 8779251043,
    "email": "ravishukla[dot]gmail[dot]com",
    "map_link": "https://maps.app.goo.gl/hxtvPoETCpdDLTj4A",
    "latitude": 19.2118072,
    "longitude": 72.8783053
  },
  {
    "district": "Mumbai Suburban",
    "taluka": "Borivali",
    "village": "Malad",
    "incharge_name": "Harkeshsingh Virendrasingh Rajavat",
    "address": "78a Rani sati marg opposite passport office malad east 400097",
    "contact_number": 9892390230,
    "email": "shubhrajconsultancy[dot]gmail[dot]com",
    "map_link": "https://maps.app.goo.gl/nyn5N5XK3BCZq5cU7",
    "latitude": 19.1834074,
    "longitude": 72.8552058
  },
  {
    "district": "Mumbai Suburban",
    "taluka": "Borivali",
    "village": "Malad",
    "incharge_name": "VINOD RAJARAM BOLAKE",
    "address": "9 Jai Bhavani road Malkani Estat kasam baug malad east 400097",
    "contact_number": 8689909936,
    "email": "vishushilwant1122[dot]gmail[dot]com",
    "map_link": "https://maps.app.goo.gl/BVhzePxVQfoWKC3p9",
    "latitude": 19.1834225,
    "longitude": 72.8526309
  },
  {
    "district": "Mumbai Suburban",
    "taluka": "Borivali",
    "village": "Kandivali",
    "incharge_name": "Prashant Ashok Salaskar",
    "address": "6 Kumar chaw gokul nagar akurli road sai baba mandir new kandivali East",
    "contact_number": 9969388305,
    "email": "prashant_12786[dot]yahoo[dot]co[dot]in",
    "map_link": "https://maps.app.goo.gl/mDJSkRkMworhmz9L9",
    "latitude": 19.2029024,
    "longitude": 72.8531198
  },
  {
    "district": "Mumbai Suburban",
    "taluka": "Borivali",
    "village": "Kandivali",
    "incharge_name": "Pramod Jayanth Maurya",
    "address": "Aanad chaw gokul nagar kadivali east",
    "contact_number": 9892123693,
    "email": "PramodMaurya6221[dot]gmail[dot]com",
    "map_link": "https://maps.app.goo.gl/LgUUxTLeL2cP9zuq9",
    "latitude": 19.2029823,
    "longitude": 72.8531198
  },
  {
    "district": "Mumbai Suburban",
    "taluka": "Borivali",
    "village": "Kandivali",
    "incharge_name": "Ravindra Uttam Gawai",
    "address": "03 om shant socity sing estate road no 1 thakur village kandivali east",
    "contact_number": 8268429196,
    "email": "vanitaravi30[dot]gmail[dot]com",
    "map_link": "https://maps.app.goo.gl/wvdSZYEusodd9x8Q7",
    "latitude": 19.2030223,
    "longitude": 72.8531198
  },
  {
    "district": "Mumbai Suburban",
    "taluka": "Andheri",
    "village": "Andheri",
    "incharge_name": "PRABHAKAR GOVIND DAMBAL",
    "address": "6 Universal Indl. Estate J P Road Near Wadia High School Opp Andheri Sports Complex",
    "contact_number": 9819289725,
    "email": "prabhakar[dot]dambal[dot]rediffmail[dot]com",
    "map_link": "https://maps.app.goo.gl/R4rDj1Rg3A6WuSPX8",
    "latitude": 19.1254705,
    "longitude": 72.8301336
  },
  {
    "district": "Mumbai Suburban",
    "taluka": "Andheri",
    "village": "Andheri",
    "incharge_name": "Ganesh Yashwant Desai",
    "address": "TABELA NO.5, OLD NAGARDAS ROAD, NEAR BHUTA HIGH SCHOOL, ANDHERI EAST, MUMBAI400069",
    "contact_number": 9867840233,
    "email": "pajay2007[dot]gmail[dot]com",
    "map_link": "https://maps.app.goo.gl/9TdMH52Ek9HXLN4C7",
    "latitude": 19.1225229,
    "longitude": 72.8521222
  },
  {
    "district": "Mumbai Suburban",
    "taluka": "Borivali",
    "village": "Kandivali",
    "incharge_name": "Umang Mahesh Shah",
    "address": "7 awasthy chawl mathuradas road near vanja wadi kamala nagar bhagat colony kadivali west 400067",
    "contact_number": 8767101021,
    "email": "yashtravelscomm[dot]gmail[dot]com",
    "map_link": "https://maps.app.goo.gl/FRVzD6Vhm3YEXx9J7",
    "latitude": 19.2032921,
    "longitude": 72.8404902
  },
  {
    "district": "Mumbai Suburban",
    "taluka": "Borivali",
    "village": "Malad",
    "incharge_name": "DEVESH HASMUKHLAL GAGLANI",
    "address": "Shop no 3 adarsh shanti nagar adarsh garden behind Malad West",
    "contact_number": 9320063912,
    "email": "kinnariimpex[dot]gmail[dot]com",
    "map_link": "https://maps.app.goo.gl/LsE4mWN7DYpon3XE9",
    "latitude": 19.2033172,
    "longitude": 72.8327654
  },
  {
    "district": "Mumbai Suburban",
    "taluka": "Andheri",
    "village": "Santacruz",
    "incharge_name": "MOHD KALIM MOHD SHAMIM KHAN",
    "address": "shop no 2 Dr.baba saheb ambedkar road opp samudra hotel khar  west",
    "contact_number": 9833367444,
    "email": "khankaleem124[dot]gmail[dot]com",
    "map_link": "https://maps.app.goo.gl/TWVJN5R3ZzY22GQM8",
    "latitude": 19.0682696,
    "longitude": 72.82755
  },
  {
    "district": "Mumbai Suburban",
    "taluka": "Andheri",
    "village": "ANDHERI",
    "incharge_name": "ALTAF SHAFIQ SHAIKH",
    "address": "Amirah Seva Kendra shop no 4 kaveri so tape vilage kaveri so tape vilage dadabhai cross road no 1 bhavans Collage",
    "contact_number": 8485825560,
    "email": "s[dot]a[dot]shaikh4646[dot]gmail[dot]com",
    "map_link": "https://maps.app.goo.gl/5XVofNdPEY38wBDBA",
    "latitude": 19.0683562,
    "longitude": 72.7915002
  },
  {
    "district": "Mumbai Suburban",
    "taluka": "Andheri",
    "village": "andheri",
    "incharge_name": "VARSHA MAHESH VISPUTE",
    "address": "Aaple Sarkar Seva Kendra, 1 N.P. Amle Chawl Gaondevi Dongri Cama Road, Andheri West Opposite Raju Ration Shop Andheri",
    "contact_number": 9224756101,
    "email": "visputevarshamahesh[dot]gmail[dot]com",
    "map_link": "https://maps.app.goo.gl/gdjkdtuJyZMruvTQA",
    "latitude": 19.128077,
    "longitude": 72.8343238
  },
  {
    "district": "Mumbai Suburban",
    "taluka": "Borivali",
    "village": "Malad",
    "incharge_name": "DEVESH HASMUKHLAL GAGLANI",
    "address": "Shop no 3 adarsh shanti nagar adarsh gardan behind Malad",
    "contact_number": 9320063912,
    "email": "kinnariimpex[dot]gmail[dot]com",
    "map_link": "https://maps.app.goo.gl/5B9VHNQwoLc1H6va7",
    "latitude": 19.1281586,
    "longitude": 72.7956991
  },
  {
    "district": "Mumbai Suburban",
    "taluka": "Borivali",
    "village": "Kandivali",
    "incharge_name": "RUCHI SAROJ JAISWAL",
    "address": "Shop No 11 Atul tower mathuadas ext road kandivali west",
    "contact_number": 7039420256,
    "email": "ruchisarojgupta[dot]gmail[dot]com",
    "map_link": "https://maps.app.goo.gl/dgi3tdgXo1JjvF7u8",
    "latitude": 19.2034563,
    "longitude": 72.8381916
  },
  {
    "district": "Mumbai Suburban",
    "taluka": "Borivali",
    "village": "Borivali",
    "incharge_name": "Kiran Kumar Udravrapu",
    "address": "Shop No 5 Jaldarshan bldg near pillai international school gorai 2 Borivali west 400092",
    "contact_number": 9029701161,
    "email": "u_kkumar[dot]yahoo[dot]co[dot]in",
    "map_link": "https://maps.app.goo.gl/A626oqxsUxpMVYSJA",
    "latitude": 19.2285759,
    "longitude": 72.8262713
  },
  {
    "district": "Mumbai Suburban",
    "taluka": "Andheri",
    "village": "andheri",
    "incharge_name": "SHANAWAZ MEHBOOB SHAIKH",
    "address": "apple sakar seva kendra 1 juhu lane gillbert hill rodad near farooqia masjid andheri west",
    "contact_number": 8082544597,
    "email": "shanawazshaikh714[dot]gmail[dot]com",
    "map_link": "https://maps.app.goo.gl/YgKaHUJGwDzs9uEZA",
    "latitude": 19.1320327,
    "longitude": 72.839294
  },
  {
    "district": "Mumbai Suburban",
    "taluka": "Borivali",
    "village": "Borivali",
    "incharge_name": "ROSHAN RAMAVATAR KUMAVAT",
    "address": "Shop no5 plot no 42 Aashirwad cooperative housing society ltd shivkrupa chs gorivali borivali west 400092",
    "contact_number": 9769585593,
    "email": "srkroshan[dot]gmail[dot]com",
    "map_link": "https://maps.app.goo.gl/KdxBVEBFB3etb7fn9",
    "latitude": 19.2281732,
    "longitude": 72.8371661
  },
  {
    "district": "Mumbai Suburban",
    "taluka": "Andheri",
    "village": "BANDRA",
    "incharge_name": "Prakash Magar",
    "address": "AAPLE SARKAR SEVA KENDRA, 8, AKRUTI SRA BLDG NO 2, ABASAHEB SHINDE MARG, NEAR GANDHINAGAR, SHASTRI NAGAR, BANDRA EAST",
    "contact_number": 9867831210,
    "email": "prakashmagar454[dot]gmail[dot]com",
    "map_link": "https://maps.app.goo.gl/Nb2HrqHB63mwEnro7",
    "latitude": 19.2282132,
    "longitude": 72.8371661
  },
  {
    "district": "Mumbai Suburban",
    "taluka": "Andheri",
    "village": "BANDRA",
    "incharge_name": "Mohd Aarif Faruki",
    "address": "AASHIRWAD SHOP NEAR BANDRA COURT BANDRA EAST 51 ",
    "contact_number": 8268104096,
    "email": "samreenfarooqui88[dot]gmail[dot]com",
    "map_link": "https://maps.app.goo.gl/4A7NJodv7T4dxqSf6",
    "latitude": 19.0699863,
    "longitude": 72.8320989
  },
  {
    "district": "Mumbai Suburban",
    "taluka": "Andheri",
    "village": "ANDHERI",
    "incharge_name": "Jitendra Konde",
    "address": "SHOP NO 3 PARAS BULDING NEAR ANDHERI TAHSIL OFFICE D N ROAD ANDHERI WEST",
    "contact_number": 9820786457,
    "email": "jitukonde786[dot]gmail[dot]com",
    "map_link": "https://maps.app.goo.gl/8Znz2uono6RoDwnr7",
    "latitude": 19.1280718,
    "longitude": 72.8331276
  },
  {
    "district": "Mumbai Suburban",
    "taluka": "Borivali",
    "village": "Dahisar",
    "incharge_name": "Melwin Fernandes",
    "address": "Shop no 6 Shanti Niketa Kandarpada circule Dahisar west 400068",
    "contact_number": 9821262077,
    "email": "melwinarts[dot]gmail[dot]com",
    "map_link": "https://maps.app.goo.gl/4ZBHbmCvQArpdgmX6",
    "latitude": 19.2556877,
    "longitude": 72.8507354
  },
  {
    "district": "Mumbai Suburban",
    "taluka": "Andheri",
    "village": "VILEPARLE",
    "incharge_name": "Bablu Paswan",
    "address": "ONLINE SERVICE CENTER PRIME MALL S.V.ROAD ALFA MARKET IRLA, VILE PARLE WEST",
    "contact_number": 7506434501,
    "email": "onlineservice651[dot]gmail[dot]com",
    "map_link": "https://maps.app.goo.gl/cDvqd3cqThyZRDkD8",
    "latitude": 19.1102757,
    "longitude": 72.8354135
  },
  {
    "district": "Mumbai Suburban",
    "taluka": "Borivali",
    "village": "Dahisar",
    "incharge_name": "NAMDEV HARIBHAU BANSODE",
    "address": "AARYA INVESTMENTS AND MULTISERVICES SHOP NO. B/8 GANESH PRASAD CHS L M ROAD OPP. SHAGUN HOTEL NAVAGAON DAHISAR WEST",
    "contact_number": 9594322220,
    "email": "namdevbansode[dot]gmail[dot]com",
    "map_link": "https://maps.app.goo.gl/4xDhs5sX2zC1FaKw5",
    "latitude": 19.1103251,
    "longitude": 72.8199638
  },
  {
    "district": "Mumbai Suburban",
    "taluka": "Borivali",
    "village": "Dahisar",
    "incharge_name": "Jayram Parab",
    "address": "RAINBOW FOUNDATION SHOP NO 2, SUKHADHAM NIWAS SHIV VALLABH CROSS ROAD OPP 2ND GATE OF HARSHGIRI APARTMENT RAWALPADA, DAHISAR EAST",
    "contact_number": 9773526949,
    "email": "jayparab27[dot]gmail[dot]com",
    "map_link": "https://maps.app.goo.gl/gHa2KeubUga5hbCLA",
    "latitude": 19.2450292,
    "longitude": 72.8710625
  },
  {
    "district": "Mumbai Suburban",
    "taluka": "Borivali",
    "village": "Dahisar",
    "incharge_name": "Kanchan Totre",
    "address": "Shop no7 s.k.rd dnyaneshwarnagar rawalpada dahisar east 400068",
    "contact_number": 7045355778,
    "email": "sandeep8452[dot]gmail[dot]com",
    "map_link": "https://maps.app.goo.gl/FJSUFj3jtPyfc5WdA",
    "latitude": 19.2450443,
    "longitude": 72.8684876
  },
  {
    "district": "Mumbai Suburban",
    "taluka": "Borivali",
    "village": "Dahisar  ",
    "incharge_name": "ISHA ISHWAR RATHOD",
    "address": "Shop no 15 N.J.Park Building no2 Rawalpada Dahisar  ",
    "contact_number": 7900001643,
    "email": "balajieservices10[dot]gmail[dot]com",
    "map_link": "https://maps.app.goo.gl/bCWc8cbCpxdAMKv2A",
    "latitude": 19.2450544,
    "longitude": 72.8684876
  },
  {
    "district": "Mumbai Suburban",
    "taluka": "Borivali",
    "village": "Dahisar",
    "incharge_name": "MANISHA BHARAT HELKAR",
    "address": "Shop no 1 Chavan chawl sawarpada opposite shani mandir borivali east 400066",
    "contact_number": 9594709335,
    "email": "manishahelkar18[dot]gmail[dot]com",
    "map_link": "https://maps.app.goo.gl/ajQFPWB3w2q2NujP7",
    "latitude": 19.2450795,
    "longitude": 72.8607628
  },
  {
    "district": "Mumbai Suburban",
    "taluka": "Borivali",
    "village": "Borivali",
    "incharge_name": "Deepali Majlekar",
    "address": "SURVE CHAWL SHOP NO.3 NEAR NEW FISH MARKET KAJUPADA BORIVALI EAST",
    "contact_number": 9820206642,
    "email": "aarya984[dot]gmail[dot]com",
    "map_link": "https://maps.app.goo.gl/QWdokoLjQeUQM1TG9",
    "latitude": 19.1105084,
    "longitude": 72.7581624
  },
  {
    "district": "Mumbai Suburban",
    "taluka": "Andheri",
    "village": "Oshivara",
    "incharge_name": "ARJUN MUNNALAL CHAURASIA",
    "address": "BHARAT COMMUNICATION SHOP NO 1 BEHRAM BAUG JOGESHWARI WEST",
    "contact_number": 9967831768,
    "email": "arjunchrs0[dot]gmail[dot]com",
    "map_link": "https://maps.app.goo.gl/wVF6pfTxxo9UU7EV7",
    "latitude": 19.1460599,
    "longitude": 72.8388316
  },
  {
    "district": "Mumbai Suburban",
    "taluka": "Borivali",
    "village": "Dahisar",
    "incharge_name": "RUSHIKESH JAYWANT RANE",
    "address": "shop no 5 panchvati dham apt Shiv Vallabh Road ashokvan nr sai baba temple dahisar east",
    "contact_number": 7900001643,
    "email": "rushikesh[dot]rane143[dot]gmail[dot]com",
    "map_link": "https://maps.app.goo.gl/QJpyQnkYKHHWtot9A",
    "latitude": 19.2491555,
    "longitude": 72.8615232
  },
  {
    "district": "Mumbai Suburban",
    "taluka": "Borivali",
    "village": "Dahisar",
    "incharge_name": "ASHUTOSH ANIL AHIRE",
    "address": "SMIT ENTERPRISES CHOUDHARI CHAWL, HARISHCHANDRA MAHAJAN MARG, OVARI PADA, DAHISAR (EAST), MUMBAI-400068",
    "contact_number": 9594375465,
    "email": "ashutosh1087[dot]gmail[dot]com",
    "map_link": "https://maps.app.goo.gl/p3Ez5VwsukSWx9mG7",
    "latitude": 19.2449122,
    "longitude": 72.863035
  },
  {
    "district": "Mumbai Suburban",
    "taluka": "Andheri",
    "village": "MOGRA",
    "incharge_name": "ASIF USMANBHAI MALKANI",
    "address": "AAPPLE SARKAR SEVA KENDRA GOV OF MAHARASHTRA KUNJ NIWAS BANDIWALI HILL ROAD OPP MALKANI EASTATE JOGESHWARI WEST",
    "contact_number": 7977033145,
    "email": "aumalkani[dot]gmail[dot]com",
    "map_link": "https://maps.app.goo.gl/dsGpwRsnPvkgtZC27",
    "latitude": 19.1320426,
    "longitude": 72.8389553
  },
  {
    "district": "Mumbai Suburban",
    "taluka": "Borivali",
    "village": "Goregaon",
    "incharge_name": "Sandip M Sawant",
    "address": "48 ward D, Dindoshi BMC Colaony, Goregaon (E)",
    "contact_number": 9821030841,
    "email": "sandip4dec[dot]gmail[dot]com",
    "map_link": "https://maps.app.goo.gl/HbjZY3vf9qN32V2TA",
    "latitude": 19.1321391,
    "longitude": 72.8080554
  },
  {
    "district": "Mumbai Suburban",
    "taluka": "Andheri",
    "village": "MAJAS",
    "incharge_name": "DASHARATH ULGA KURADE",
    "address": "SHOP M/S TAJ AUTO DEAL jawar manjil bandra plot nai basti nr khwaja darbar hotel JOGESHWARI EAST",
    "contact_number": 8879012027,
    "email": "dasharathkurade21[dot]gmail[dot]com",
    "map_link": "https://maps.app.goo.gl/rq4GrrViEUNjMG767",
    "latitude": 19.1412542,
    "longitude": 72.8426023
  },
  {
    "district": "Mumbai Suburban",
    "taluka": "Andheri",
    "village": "OSHIVRA",
    "incharge_name": "K G N ENTERPRISES",
    "address": "SHOP NO 2, VIKAS NAGAR VEERA DESAI ROAD BEHRAM BAUG JOGESHWARI WEST",
    "contact_number": 8080517711,
    "email": "SHAIKHZAMEER999[dot]GMAIL[dot]COM",
    "map_link": "https://maps.app.goo.gl/qbGodcGZXCrx8PVH6",
    "latitude": 19.1412743,
    "longitude": 72.8426023
  },
  {
    "district": "Mumbai Suburban",
    "taluka": "Borivali",
    "village": "GOREGAON ",
    "incharge_name": "SALIM NASEER SHAIKH",
    "address": "BLDG NO. 12 SHOP NO. 06 PRIYADARSHANI SRA CHS  SHANTI NIKETAN S.P.P.L.  NEAR MANTRI PARK DINDOSHI GOREGAON EAST MUMBAI 400065",
    "contact_number": 9867531105,
    "email": "salim[dot]s1706[dot]gmail[dot]com",
    "map_link": "https://maps.app.goo.gl/gwzCZsHxxjrMtLVB6",
    "latitude": 19.1413238,
    "longitude": 72.8271526
  },
  {
    "district": "Mumbai Suburban",
    "taluka": "Borivali",
    "village": "GOREGAON ",
    "incharge_name": "Balraj Borkar",
    "address": "Shop no-3B, ground  flr, chandiwala blog, j.p nagar, road no-1, Goregaon  east",
    "contact_number": "9869141134 / 9619036236",
    "email": "balraj[dot]borkar[dot]gmail[dot]com",
    "map_link": "https://maps.app.goo.gl/XGnkgGxsZHASziD36",
    "latitude": 19.1414026,
    "longitude": 72.8271526
  },
  {
    "district": "Mumbai Suburban",
    "taluka": "Borivali",
    "village": "Goregaon",
    "incharge_name": "Soniya Vijay Dabholkar",
    "address": "Royal Plam, Mayur Nagar Arey Colony, Goregaon (East)",
    "contact_number": 7506049942,
    "email": "soniyadabholkar[dot]gmail[dot]com",
    "map_link": "https://maps.app.goo.gl/CFr6b58ZSMXRgViNA",
    "latitude": 19.1512017,
    "longitude": 72.8856493
  },
  {
    "district": "Mumbai Suburban",
    "taluka": "Borivali",
    "village": "Malad",
    "incharge_name": "Shital Desai",
    "address": "SHOP NO 7 damodar krupa buli,  HORIZON HOMES, road no 2 LIBERTY GARDEN, MALAD WEST MUMBAI 64",
    "contact_number": 9892137987,
    "email": "galaxycomputereducation96[dot]gmail[dot]com",
    "map_link": "https://maps.app.goo.gl/LHxnqwVd9U2SKH526",
    "latitude": 19.2451758,
    "longitude": 72.8298629
  },
  {
    "district": "Mumbai Suburban",
    "taluka": "Borivali",
    "village": "MALAD",
    "incharge_name": "MAHESH VISHWANATH ADKAR",
    "address": "SARASWATI CHAVAN HAWALDAR CHAWL SHOP NO 1 CHINCHOLI BANDAR MARG, MALAD MALAD WEST",
    "contact_number": "8169661800 / 9870313642",
    "email": "maheshadkar11[dot]gmail[dot]com",
    "map_link": "https://maps.app.goo.gl/g8VznzYhbwPQN3Hs6",
    "latitude": 19.1790774,
    "longitude": 72.8378686
  },
  {
    "district": "Mumbai Suburban",
    "taluka": "Borivali",
    "village": "KANDIVALI WEST",
    "incharge_name": "Deepak Ramchandra Parve",
    "address": "3/3/D-41 VDYACHAL CHAS SECT 3 CHARKOP KANDIVALI WEST",
    "contact_number": 9322858240,
    "email": "PARVEDEEPAK[dot]GMAIL[dot]COM",
    "map_link": "https://maps.app.goo.gl/WSDVcqjvjtRxADRR9",
    "latitude": 19.179132,
    "longitude": 72.819844
  },
  {
    "district": "Mumbai Suburban",
    "taluka": "Andheri",
    "village": "majas",
    "incharge_name": "Purushottam Baburao Jalgaonkar",
    "address": "Laxmi Cable Network 3/21 Sarvoday Nagar, MHB Colony Hema Industries Jogeshwari East",
    "contact_number": 9820783063,
    "email": "purushottamjalgaonkar24[dot]gmail[dot]com",
    "map_link": "https://maps.app.goo.gl/JyL2DgMtv3hCExJm9",
    "latitude": 19.1387723,
    "longitude": 72.8471691
  },
  {
    "district": "Mumbai Suburban",
    "taluka": "Borivali",
    "village": "DAHISAR",
    "incharge_name": "Sudhir Udaybhan Singh",
    "address": "SHOP NO 1, RAMANI COMPOUND, ANAND NAGAR, DAHISAR EAST",
    "contact_number": 9969661346,
    "email": "sudhirthakur1988[dot]yahoo[dot]in",
    "map_link": "https://maps.app.goo.gl/te2CV5Q7zKVkp7au9",
    "latitude": 19.2532959,
    "longitude": 72.8611808
  },
  {
    "district": "Mumbai Suburban",
    "taluka": "Borivali",
    "village": "kandivali",
    "incharge_name": "R K Khosla",
    "address": "Shop no 4  Indraneel CHSI Sector 2 charkhop kandivali west mumabi",
    "contact_number": 9820383975,
    "email": "sanjogrkk[dot]gmail[dot]com",
    "map_link": "https://maps.app.goo.gl/efugoD1ivjUwSsVB7",
    "latitude": 19.2533453,
    "longitude": 72.8457311
  },
  {
    "district": "Mumbai Suburban",
    "taluka": "Andheri",
    "village": "OSHIVARA",
    "incharge_name": "Sachin Dange",
    "address": "SHOP NO 18 B WING GROUND FLOOR SARVODYA BULDING BEHRAM BAG JOGESHWARI WEST",
    "contact_number": 9322128583,
    "email": "sachin24karat[dot]gmail[dot]com",
    "map_link": "https://maps.app.goo.gl/oJzRAhA4MT5WGmN98",
    "latitude": 19.1389913,
    "longitude": 72.8445638
  },
  {
    "district": "Mumbai Suburban",
    "taluka": "Borivali",
    "village": "GOREGAON",
    "incharge_name": "Lata Bharat Ghorpade",
    "address": "f2/24 BMC COLONY OPP BMC SCHOOL SANTOSH NAGAR DINDOSHI, GOREGAON EAST.",
    "contact_number": "7045374723/ 7021558342",
    "email": "lataghorpade1[dot]gmail[dot]com",
    "map_link": "https://maps.app.goo.gl/ZumZyGBHUVjZ2PFp8",
    "latitude": 19.1709291,
    "longitude": 72.8716875
  },
  {
    "district": "Mumbai Suburban",
    "taluka": "Andheri",
    "village": "OSHIVRA",
    "incharge_name": "RAGINI AGRAHARI",
    "address": "PRITAM ASSOCIATES 61 NAVSHAKTI NAGAR JOGESHWARI WEST BEHRAM BAUG",
    "contact_number": 9324329286,
    "email": "raginiagrahari1999[dot]gmail[dot]com",
    "map_link": "https://maps.app.goo.gl/voEa4rjm2zPyBgDz9",
    "latitude": 19.145355,
    "longitude": 72.8310768
  },
  {
    "district": "Mumbai Suburban",
    "taluka": "Borivali",
    "village": "kandivali",
    "incharge_name": "RAKESHKUMAR KISHORILAL GUPTA ",
    "address": "Shop no 4 Bulid no 62, ekta nagar, near bhoomi mark kandivali west",
    "contact_number": 9819911950,
    "email": "ashirwadmts[dot]gmail[dot]com",
    "map_link": "https://maps.app.goo.gl/9MFJBkhGJKFdNBfcA",
    "latitude": 19.2014233,
    "longitude": 72.8243882
  },
  {
    "district": "Mumbai Suburban",
    "taluka": "Andheri",
    "village": "oshivara",
    "incharge_name": "KRISHAN KUMAR SIYARAM MAURYA",
    "address": "Asisih Studio Shop No 1 Gaikwad Chawl Behram Baug Patelwadi Adarsh Nagar Jogeshwari West",
    "contact_number": 8097681915,
    "email": "Asisih Studio Shop No 1 Gaikwad Chawl Behram Baug Patelwadi Adarsh Nagar Jogeshwari West",
    "map_link": "https://maps.app.goo.gl/75aTranrr2XSV9k57",
    "latitude": 19.1411798,
    "longitude": 72.8359591
  },
  {
    "district": "Mumbai Suburban",
    "taluka": "Andheri",
    "village": "MAJAS",
    "incharge_name": "Sayali Narayan Sawant",
    "address": " Astitva Foundation, Laxmi Wadi, New Shyam Nagar, Near Unni Krishnan B.M.C. Garden Opp. Kokan Hospital Jogeshwari - East",
    "contact_number": 8452814437,
    "email": "sayalisawant123[dot]yahoo[dot]com",
    "map_link": "https://maps.app.goo.gl/B1797hmLZvryJk1j7",
    "latitude": 19.1359852,
    "longitude": 72.8644056
  },
  {
    "district": "Mumbai Suburban",
    "taluka": "Andheri",
    "village": "MAJAS",
    "incharge_name": "Vikrant Shingre",
    "address": "Maha E Seva Kendra SHOP NO 4 DASHRATH SINHA ESTATE GUMPHA ROAD JOGESHWARI EAST",
    "contact_number": 9004762655,
    "email": "vikrant[dot]shingre[dot]gmail[dot]com",
    "map_link": "https://maps.app.goo.gl/VqgMiVvz6EPztYW88",
    "latitude": 19.1395479,
    "longitude": 72.8564404
  },
  {
    "district": "Mumbai Suburban",
    "taluka": "Andheri",
    "village": "MAJAS",
    "incharge_name": "Shahaji Sawant",
    "address": "Maha E Seva Kendra SIA LIVE TECHNOLOGIES SHOP NO 3 BLDG NO 2 OM SHREE GANESH CHS SHYAM NAGAR OPP SAIBABA TEMPLE JOGESHWARI EAST",
    "contact_number": 8080390712,
    "email": "SAI[dot]LIVE[dot]IN",
    "map_link": "https://maps.app.goo.gl/xpPMuXtUGMQzBQx47",
    "latitude": 19.1358076,
    "longitude": 72.8611513
  },
  {
    "district": "Mumbai Suburban",
    "taluka": "Andheri",
    "village": "ANDHERI",
    "incharge_name": "SWAPNIL SUHAS KADAM",
    "address": "Maha E Seva Kendra G-25, Sai Datt CHS N S Phadke Marg Near Swami Samarth temple Saiwadi",
    "contact_number": 9870115246,
    "email": "swapnilkadam888[dot]gmail[dot]com",
    "map_link": "https://maps.app.goo.gl/g2a8dQwFr4ZRRGd36",
    "latitude": 19.1358942,
    "longitude": 72.8199517
  },
  {
    "district": "Mumbai Suburban",
    "taluka": "Andheri",
    "village": "MAJAS",
    "incharge_name": "SUSHIL ASHOK BALID",
    "address": "5/B, Rajman Niwas Ramwadi J V Link Road Behind Ramwadi Bus Stop Jogeshwari East",
    "contact_number": 9821861461,
    "email": "susshilbalid[dot]gmail[dot]com",
    "map_link": "https://maps.app.goo.gl/rfBuhNt3Cdn12TXZ9",
    "latitude": 19.1392411,
    "longitude": 72.8567172
  },
  {
    "district": "Mumbai Suburban",
    "taluka": "Andheri",
    "village": "OSHIVRA",
    "incharge_name": "WORLD MOBILE CENTRE",
    "address": "Maha E Seva Kendra WORLD MOBILE CENTRE 6,LALJI CHAWL RAGHVENDRA MANDIR ROAD, OPP BHAVNA JEWELLERS, AJIT GLASS,JOGESHWARI WEST,",
    "contact_number": 9702451590,
    "email": "jagdishsharmamns[at]gmail[dot]com",
    "map_link": "https://maps.app.goo.gl/bpc2LX3bnDqKZD7g8",
    "latitude": 19.1469661,
    "longitude": 72.822259
  },
  {
    "district": "Mumbai Suburban",
    "taluka": "Kurla",
    "village": "KURLA",
    "incharge_name": "Vijay Krida mandal",
    "address": "VIJAY KRIDA MANDAL SAIHILL,T.P.ROAD,BHANDUP WEST VIJAY KRIDA MANDAL",
    "contact_number": "9833158944/8291980327",
    "email": "vijaykrida[at]gmail[dot]com",
    "map_link": "https://maps.app.goo.gl/bpc2LX3bnDqKZD7g8",
    "latitude": 19.1469661,
    "longitude": 72.822259
  },
  {
    "district": "Mumbai Suburban",
    "taluka": "Kurla",
    "village": "VIKROLI",
    "incharge_name": "KAVITA DNYANESH ALDAR",
    "address": "Ram Kamal Typing & Computer Institute D-17/8 BMC colony Road no .02 Parksite vikhroli west-40079",
    "contact_number": 9222116732,
    "email": "ramkamal1727[at]gmail[dot]com",
    "map_link": "https://maps.app.goo.gl/BQeWwAs6gkXfUfWPA",
    "latitude": 19.1063797,
    "longitude": 72.9135071
  },
  {
    "district": "Mumbai Suburban",
    "taluka": "Kurla",
    "village": "GHATKOPAR",
    "incharge_name": "PRAMOD SOPAN GAIKWAD",
    "address": "SHOP NO 28/B PATELWADI Asalfa Village GHATKOPAR",
    "contact_number": 9004178477,
    "email": "pramodgaikwad172[dot]gmail[dot]com",
    "map_link": "https://maps.app.goo.gl/ejcDfmJEbnoFAuhEA",
    "latitude": 19.0910241,
    "longitude": 72.8917815
  },
  {
    "district": "Mumbai Suburban",
    "taluka": "Kurla",
    "village": "GHAKOPAR",
    "incharge_name": "Dipak Gaikwad",
    "address": "SHOP NO 1 RAM NAGINA TIWARI CHAWL ASLPHA GHATKOPAR LINK ROAD NEAR JAMBUL PADA BUS STOP ASALPHA VILLAGE GHATKOPAR WEST",
    "contact_number": 84249338606,
    "email": "dipakgaikwad007[dot]gmail[dot]com",
    "map_link": "https://maps.app.goo.gl/6QykEFcDgJmgVWuQ6",
    "latitude": 19.0910641,
    "longitude": 72.8917815
  },
  {
    "district": "Mumbai Suburban",
    "taluka": "Andheri",
    "village": "KONDIVITA",
    "incharge_name": "Vinay Kumar Pandey",
    "address": "anchal enterprises shop no 9 subash nagar shuklA CHAWL NO 2 MIDC old morden english school MIDC ANDHERI E",
    "contact_number": 9320842513,
    "email": "vinaypandey8722[at]gmail[dot]com",
    "map_link": "https://maps.app.goo.gl/UB49nF621q64SgWY9",
    "latitude": 19.1254253,
    "longitude": 72.8705776
  },
  {
    "district": "Mumbai Suburban",
    "taluka": "Kurla",
    "village": "MULUND",
    "incharge_name": "Goutam Gemavat",
    "address": "SHREE LAXMI SERVICES A-3,SALPADEVI SADAN CHS P.K.ROAD NEAR SAI DHAM MULUND (WEST)",
    "contact_number": 9322233009,
    "email": "goutamgemavat[dot]gmail[dot]com",
    "map_link": "https://maps.app.goo.gl/dG4LUrPVSr6M66Ew7",
    "latitude": 19.1659166,
    "longitude": 72.9435211
  },
  {
    "district": "Mumbai Suburban",
    "taluka": "Kurla",
    "village": "GOVANDI",
    "incharge_name": "Sunny Bhosale",
    "address": "Royal Enterprises Plot no. 44, S11 Bajiprabhu Deshpande Road Near Shivajinagar Post Office",
    "contact_number": 9221225614,
    "email": "sunnybhosale227[dot]gmail[dot]com",
    "map_link": "https://maps.app.goo.gl/NfMZKrudbtkX2Hvd6",
    "latitude": 19.1660705,
    "longitude": 72.8611201
  },
  {
    "district": "Mumbai Suburban",
    "taluka": "Kurla",
    "village": "MANKHURD",
    "incharge_name": "Sunil Mane",
    "address": "AAPLE SARKAR SEVA KENDRA SHOP NO 7 JYOTIRLING NAGAR NEAR DATTA MANDIR , MANKHURD WEST",
    "contact_number": 9594517642,
    "email": "SUNILMN471[dot]GMAIL[dot]COM",
    "map_link": "https://maps.app.goo.gl/ot9GGttigVJrxB5g6",
    "latitude": 19.0505233,
    "longitude": 72.930725
  },
  {
    "district": "Mumbai Suburban",
    "taluka": "Kurla",
    "village": "MANKHURD",
    "incharge_name": "FAYAZ KHALIL SHAIKH",
    "address": "FS Tours Travels Plot No-20,Line No-Q,Shop No-1 Road No-3 Near Hari Masjid Shivaji Nagar,Govandi",
    "contact_number": 9221255784,
    "email": "FASHAIKH80[dot]GMAIL[dot]COM",
    "map_link": "https://maps.app.goo.gl/pi18aZA23i8WGhQQA",
    "latitude": 19.0505458,
    "longitude": 72.9217128
  },
  {
    "district": "Mumbai Suburban",
    "taluka": "Kurla",
    "village": "CHEMBUR",
    "incharge_name": "Vinay Ramdhani Gupta",
    "address": "Amar Nagar W.T.Patil Marg Amar Nagar W.T.Patil Marg Opp Dukes Company Opp Dukes Company chembur Chembur\n",
    "contact_number": 9321317031,
    "email": "vinaygupta395[dot]gmail[dot]com",
    "map_link": "https://maps.app.goo.gl/orUFEURQJ1anuYXi8",
    "latitude": 19.0505858,
    "longitude": 72.9217128
  },
  {
    "district": "Mumbai Suburban",
    "taluka": "Borivali",
    "village": "Kandivali",
    "incharge_name": "MANOJ BHIKAJI PHONDEKAR",
    "address": "Nalanda veday vihar chow DAMU NAGAR OPP SWAMI RATION SHOP KANDIVALI EAST",
    "contact_number": 9892670974,
    "email": "manojphondekar22[dot]gmail[dot]com",
    "map_link": "https://maps.app.goo.gl/Pk3MhgtHxfhLiETv7",
    "latitude": 19.1987725,
    "longitude": 72.8525139
  },
  {
    "district": "Mumbai Suburban",
    "taluka": "Kurla",
    "village": "CHEMBUR",
    "incharge_name": "NILESH DATTARAM GAWADE",
    "address": "SHREE ENTERPRISES SHOP NO-9 W T PATIL MARG NEAR DUKES COMPANY GOVANDI\n",
    "contact_number": 9320022297,
    "email": "cscshree18[at]gmail[dot]com",
    "map_link": "https://maps.app.goo.gl/DPuZ6ufDQUmATNQy6",
    "latitude": 19.0457659,
    "longitude": 72.8904523
  },
  {
    "district": "Mumbai Suburban",
    "taluka": "Borivali",
    "village": "Kandivali",
    "incharge_name": "PRASHANT SUBEDAR SINGH",
    "address": "Ramsukha CHAWL GAONDEVI RD,KAJUPADA POISAR KANDIVALI EAST",
    "contact_number": 8652660330,
    "email": "prashant9967955841[dot]gmail[dot]com",
    "map_link": "https://maps.app.goo.gl/AstQpxwYCPrDMRHd7",
    "latitude": 19.2060543,
    "longitude": 72.8542397
  },
  {
    "district": "Mumbai Suburban",
    "taluka": "Kurla",
    "village": "MANKHURD",
    "incharge_name": " Sandip More",
    "address": "V N PURAV MARG MANKHURD 43",
    "contact_number": 8108743683,
    "email": "sandymore3683[dot]gmail[dot]com",
    "map_link": "https://maps.app.goo.gl/EGrDr6HTuH8iriuY9",
    "latitude": 19.044695,
    "longitude": 72.9238354
  },
  {
    "district": "Mumbai Suburban",
    "taluka": "Borivali",
    "village": "KANDIVALI",
    "incharge_name": "ANIL MEHILAL GUPTA",
    "address": "Shoop NO 1, CHAWL NO 12, SHIV SHAKTI COMPOUND, OPP SHIV TEMPLE, SHIV MANDIR ROAD KANDIVALI WEST",
    "contact_number": 9967163637,
    "email": "anilgupta1439[dot]gmail[dot]com",
    "map_link": "https://maps.app.goo.gl/bbJYqHiGSTSyoz7u5",
    "latitude": 19.204762,
    "longitude": 72.8407341
  },
  {
    "district": "Mumbai Suburban",
    "taluka": "Kurla",
    "village": "GOVANDI",
    "incharge_name": "Devendra Gupta",
    "address": "D K GUPTA AND ASSOCIATE SHOP NO9 RAMAN MAMA NAGAR BAIGANWADI SIGNAL NEAR AQSA HOTEL BAIGANWADI GOVANDI\n",
    "contact_number": 9224773204,
    "email": "guptajiassociate[at]gmail[dot]com",
    "map_link": "https://maps.app.goo.gl/1gMSQ3ScUjdfZbFu7",
    "latitude": 19.2049257,
    "longitude": 72.7686329
  },
  {
    "district": "Mumbai Suburban",
    "taluka": "Borivali",
    "village": "Goregaon",
    "incharge_name": "SANDEEP KASHIRAM SAKPAL",
    "address": "AAPLE SARKAR SEVA KENDRA UNIT NO. 3, AAREY MILK COLONY GOREGAON - EAST",
    "contact_number": 9221592216,
    "email": "smsforservice[dot]yahoo[dot]com",
    "map_link": "https://maps.app.goo.gl/X3P41nnu5ohYJhvH8",
    "latitude": 19.1607638,
    "longitude": 72.8661965
  },
  {
    "district": "Mumbai Suburban",
    "taluka": "Kurla",
    "village": "BHANDUP",
    "incharge_name": "Sangeeta Vaibhav Jambekar",
    "address": "MAHA E SEVA KENDRA, 1/11, F.L.Sutari Chawl, Sai Nagar, Near C.G.S Colony Road, Bhandup (E), Mumbai No-400042\n",
    "contact_number": 9867341497,
    "email": "sam1313jam[dot]gmail[dot]com",
    "map_link": "https://maps.app.goo.gl/xRCuqtPx78DpNY5A7",
    "latitude": 19.1414168,
    "longitude": 72.9306011
  },
  {
    "district": "Mumbai Suburban",
    "taluka": "Borivali",
    "village": "Goregaon",
    "incharge_name": "RAKESH NAMDEV RATHOD",
    "address": "Jai Bhavani Customer Service Centre Shop no. 81, Shiv Darshan Nagar Seva Sangh, Gen. A. K. Vaidya Marg Near Ware High School Santosh Nagar, Goregaon (E)",
    "contact_number": 8779768807,
    "email": "rakeshrathod3585[dot]gmail[dot]com",
    "map_link": "https://maps.app.goo.gl/vNDLCXe6q9xo6zGC7",
    "latitude": 19.1701425,
    "longitude": 72.8607158
  },
  {
    "district": "Mumbai Suburban",
    "taluka": "Kurla",
    "village": "MANKHURD",
    "incharge_name": "MEERA MOHIDDIN IBRAHIM",
    "address": "G-SECTOR, G1-LINE, SHOP NO 13, CHEETA CAMP, TROMBAY, MUMBAI - 400088",
    "contact_number": 9768931681,
    "email": "mohiddin71[dot]gmail[dot]com",
    "map_link": "https://maps.app.goo.gl/3zwbeF452wqXkh8d7",
    "latitude": 19.037563,
    "longitude": 72.9455617
  },
  {
    "district": "Mumbai Suburban",
    "taluka": "Borivali",
    "village": "Kandivali",
    "incharge_name": "PRAMOD PANDURANG GHAG",
    "address": "32, chintamani vikas society new link road dahanu karwadi Kandivali",
    "contact_number": 9022487317,
    "email": "pramodghag1980[dot]gmail[dot]com",
    "map_link": "https://maps.app.goo.gl/mgpc7tYCvGgMYqJA9",
    "latitude": 19.2224313,
    "longitude": 72.8276186
  },
  {
    "district": "Mumbai Suburban",
    "taluka": "Borivali",
    "village": "Borivali",
    "incharge_name": "Vijay Kanan Kaundar",
    "address": "SHOP NO 5 sri sai association SOCY EKSAR JOGGERS PARK EKSAR ROAD devidas lane BORIVALI WEST",
    "contact_number": 9221600371,
    "email": "vijaykaundar[dot]gmail[dot]com",
    "map_link": "https://maps.app.goo.gl/DJ7rok3yPJdPKY4KA",
    "latitude": 19.22251,
    "longitude": 72.8276186
  },
  {
    "district": "Mumbai Suburban",
    "taluka": "Borivali",
    "village": "Dahisar",
    "incharge_name": "BHAVNA BAABU BARIYA",
    "address": "Shop No - 10 & 11 Muncipal Market, cs road, bank of baroda dahisar",
    "contact_number": 7718900592,
    "email": "dahisarmahaesevakendra[dot]gmail[dot]com",
    "map_link": "https://maps.app.goo.gl/1m9W2pQLsqMBrTA37",
    "latitude": 19.2225888,
    "longitude": 72.8276185
  },
  {
    "district": "Mumbai Suburban",
    "taluka": "Kurla",
    "village": "Powai",
    "incharge_name": "NAVEENKUMAR JETHARAM MALI",
    "address": "Mahalaxmi Digital CSC Center Bldg no 21/B/005 Sangharsh nagar chandivali Farm road near Sai baba Mandir Andheri East\n",
    "contact_number": 9022702251,
    "email": "mahalaxmibc9702[dot]gmail[dot]com",
    "map_link": "https://maps.app.goo.gl/tJ7Xy5fFgQt4Z5Ut5",
    "latitude": 19.1125926,
    "longitude": 72.8575678
  },
  {
    "district": "Mumbai Suburban",
    "taluka": "Kurla",
    "village": "VIDYAVIHAR",
    "incharge_name": "Sanket Ghodekar",
    "address": "GRAHAK SUVIDHA KENDRA SHOP NO.1,BAZIL VILLA OPP NEELKANTH CORPORATE PARK VIDYAVIHAR WEST MUMBAI-400086\n",
    "contact_number": 9702106570,
    "email": "ghodekarsanket[dot]gmail[dot]com",
    "map_link": "https://maps.app.goo.gl/564Ruj8V1WWeZ5PWA",
    "latitude": 19.0810839,
    "longitude": 72.8941397
  },
  {
    "district": "Mumbai Suburban",
    "taluka": "Kurla",
    "village": "Powai",
    "incharge_name": "Giridhar Sonawane",
    "address": "Basker Academic Foundation 10/G/006, Gajanan Society Sangharsh Nagar, Chandivali Farm Road Opp Pawar Public School Chandivali\n",
    "contact_number": 9820341144,
    "email": "snlchandivall2018[dot]gmail[dot]com",
    "map_link": "https://maps.app.goo.gl/SzDebsAoriNXWRPf7",
    "latitude": 19.111428,
    "longitude": 72.904291
  },
  {
    "district": "Mumbai Suburban",
    "taluka": "Kurla",
    "village": "govandi",
    "incharge_name": "NITIN RAMESH MAKRE",
    "address": "Shree Vallabh Enterprise Sadashiv Bhoir House, Govandi Village, Near Monginis Cake Shop, Govandi\n",
    "contact_number": 8080007796,
    "email": "nitinmakre21[dot]gmail[dot]com",
    "map_link": "https://maps.app.goo.gl/eRxUVLXTVRXFQRLdA",
    "latitude": 19.1115146,
    "longitude": 72.8630914
  },
  {
    "district": "Mumbai Suburban",
    "taluka": "Kurla",
    "village": "GOVNDI",
    "incharge_name": "Asha Vinod Gupta",
    "address": "SHANKAR MALI CHAWL NEAR MUNICIPAL SCHOOL GOVANDI\n",
    "contact_number": 9022393918,
    "email": "pritam3918[dot]gmail[dot]com",
    "map_link": "https://maps.app.goo.gl/2uMmEhCMvjcnZuUaA",
    "latitude": 19.0593617,
    "longitude": 72.9150992
  },
  {
    "district": "Mumbai Suburban",
    "taluka": "Borivali",
    "village": "Borivali",
    "incharge_name": "Shubham Ramlal Shahani",
    "address": "Shop no 5 goyal traid center shantivan borivali East",
    "contact_number": "9987139930 / 8097026760",
    "email": "shubhamsahani0[dot]gmail[dot]com",
    "map_link": "https://maps.app.goo.gl/8jJevJ9t7LAAJKGB7",
    "latitude": 19.2343121,
    "longitude": 72.8619222
  },
  {
    "district": "Mumbai Suburban",
    "taluka": "Borivali",
    "village": "Borivali",
    "incharge_name": "Shubham Ramlal Shahani",
    "address": "Shop no 13 goyal traid center, vina society, shantivan borivali east",
    "contact_number": 8097026760,
    "email": "tcicyber[dot]gmail[dot]com",
    "map_link": "https://maps.app.goo.gl/7BC7YZBjGqQsuYKn7",
    "latitude": 19.2345672,
    "longitude": 72.8650555
  },
  {
    "district": "Mumbai Suburban",
    "taluka": "Borivali",
    "village": "Kandivali",
    "incharge_name": "SUKUMAR PUSHPARAJ SWAMY",
    "address": "SKY INFOTECH, SHOP NO 3, SAI HEAVEN CHS, GAONDEVI ROAD, POISAR, KANDIVALI WEST, MUMBAI ",
    "contact_number": 9870452204,
    "email": "skyinfotechcyber[dot]gmail[dot]com",
    "map_link": "https://maps.app.goo.gl/QCeCzWiGfB5cJeZe8",
    "latitude": 19.2346167,
    "longitude": 72.8444559
  },
  {
    "district": "Mumbai Suburban",
    "taluka": "Borivali",
    "village": "Dahisar",
    "incharge_name": "RAMASHRAY RAMKARAN CHAUHAN",
    "address": "Janani Eseva Kendra Shop No 8, Hiral Splendour Tower Ketkipada Road Near Diamond Industrial Estate Dahisar East",
    "contact_number": 8433848444,
    "email": "ramy[dot]chauhan[dot]gmail[dot]com",
    "map_link": "https://maps.app.goo.gl/tgwPDDQvnjRg1yr6A",
    "latitude": 19.2566284,
    "longitude": 72.8737327
  },
  {
    "district": "Mumbai Suburban",
    "taluka": "Kurla",
    "village": "Powai",
    "incharge_name": "KIRTI SUMIT HANDORE",
    "address": "BODHI ENTERPRISES GROUP NO 1 I I T MAIN GATE NEAR POWAI ENGLISH SCHOOL RAMABAI AMBEDKAR NAGAR\n",
    "contact_number": 8108993166,
    "email": " kirtihandore756[at]gmail[dot]com",
    "map_link": "https://maps.app.goo.gl/YktLramzeh7JmYPi7",
    "latitude": 19.1251269,
    "longitude": 72.9018901
  },
  {
    "district": "Mumbai Suburban",
    "taluka": "Kurla",
    "village": "KURLA",
    "incharge_name": "PHOOLCHAND MUNNILAL JAISWAR",
    "address": "1/1 SHANTI SEVA SADAN 90 FEET ROAD NETAJI NAGAR KHADI 13 SAKI NAKA KURLA WEST",
    "contact_number": 9838287920,
    "email": "phoolchandj5[dot]gmail[dot]com",
    "map_link": "https://maps.app.goo.gl/B9R3C2s3M13pu7Vt7",
    "latitude": 19.0823841,
    "longitude": 72.8708312
  },
  {
    "district": "Mumbai Suburban",
    "taluka": "Kurla",
    "village": "CHEMBUR",
    "incharge_name": "Shankar dashrath Lanke",
    "address": "RAJLAXMI TRAVAL BLDG NO.66, SHOP NO.03 DHANANJAY CHS, OPP AMRPALI LADIES HOSTEL, NEAR MUNCIPAL SCHOOL TILAK NAGAR, CHEMBUR\n",
    "contact_number": 9004228095,
    "email": "sdlanke[at]rediffmail[dot]com",
    "map_link": "https://maps.app.goo.gl/kzMUCGyRHZqSZPDB6",
    "latitude": 19.0676911,
    "longitude": 72.8916065
  },
  {
    "district": "Mumbai Suburban",
    "taluka": "Borivali",
    "village": "Malad",
    "incharge_name": "FIROZ USMANBHAI MALKANI",
    "address": "Shop No - 21 Patel Shoping Center , Sainath Road, Malad ( West ) - 400064",
    "contact_number": 8779245664,
    "email": "aumalkani[dot]gmail[dot]com",
    "map_link": "https://maps.app.goo.gl/jD9HVZsLWaeKswcUA",
    "latitude": 19.1892733,
    "longitude": 72.8480862
  },
  {
    "district": "Mumbai Suburban",
    "taluka": "Kurla",
    "village": "CHEMBUR",
    "incharge_name": "Sujit Shinde",
    "address": "GRACE ELECTRONICS AZIZ BAUG RC MARG MAHUL ROAD\n",
    "contact_number": 9029933770,
    "email": "graceelectronics[dot]kurla[dot]gmail[dot]com",
    "map_link": "https://maps.app.goo.gl/47mUxn6f6uULch7H7",
    "latitude": 19.050878,
    "longitude": 72.8832986
  },
  {
    "district": "Mumbai Suburban",
    "taluka": "Borivali",
    "village": "Malad",
    "incharge_name": "NILOFAR FIROZ MALKANI",
    "address": "Shop no 28 patel shopping center ground floor malad west",
    "contact_number": 7977033145,
    "email": "maladcsc[dot]gmail[dot]com",
    "map_link": "https://maps.app.goo.gl/CjRHDTpyw86JBPCy7",
    "latitude": 19.1888,
    "longitude": 72.84793
  },
  {
    "district": "Mumbai Suburban",
    "taluka": "Kurla",
    "village": "Ghatkopar ",
    "incharge_name": "Ganesh Kale",
    "address": "Room No.1, Budhaji Patil Chawl, Sudhakar Parsekar Chowk, R B Kadam Marg, Near Hanuman Mandir, Barvenagar, Bhatwadi, Ghatkopar W\n",
    "contact_number": 9870257640,
    "email": "ganesh[dot]kale01[dot]gmail[dot]com",
    "map_link": "https://maps.app.goo.gl/z2A5vpG5gmahPFn98",
    "latitude": 19.0930991,
    "longitude": 72.8947154
  },
  {
    "district": "Mumbai Suburban",
    "taluka": "Borivali",
    "village": "Borivali",
    "incharge_name": "Sanjay Savla",
    "address": "Shop no 5 Sukarwadi ST depo near M G Road No 9 Near S T Depo Sukarwadi, Borivali East\n",
    "contact_number": 9322061987,
    "email": "arihant2013[dot]gmail[dot]com",
    "map_link": "https://maps.app.goo.gl/b87XJd29rCKztQ9U8",
    "latitude": 19.2316964,
    "longitude": 72.8573723
  },
  {
    "district": "Mumbai Suburban",
    "taluka": "Kurla",
    "village": "ghatkopar",
    "incharge_name": "KISHOR GURUNATH KUNKAVLEKAR",
    "address": "MASK ENTERPRISES 1/7 SURAKSHA NAGAR KATODI PADA ROAD BHATWADI BARVE NAGAR NEAR JALARAM TEMPLE\n",
    "contact_number": 9819935766,
    "email": "mask032017[dot]gmail[dot]com",
    "map_link": "https://maps.app.goo.gl/bhzqsGq9MHmjsSMT8",
    "latitude": 19.0967994,
    "longitude": 72.9053943
  },
  {
    "district": "Mumbai Suburban",
    "taluka": "Kurla",
    "village": "CHANVALI",
    "incharge_name": "Archna Shivaji Tadlapurkar",
    "address": "5/G/001 Sangharsh Nagar Chandivali Farm Road Mumbai-72\n",
    "contact_number": 9870037156,
    "email": "adv[dot]vithalgadikar[dot]gmail[dot]com ",
    "map_link": "https://maps.app.goo.gl/SQATwdAAygwV5fQA8",
    "latitude": 19.1145789,
    "longitude": 72.8956252
  },
  {
    "district": "Mumbai Suburban",
    "taluka": "Kurla",
    "village": "VIKAROLI",
    "incharge_name": "Shubhangi Dinesh Patil",
    "address": "2/20 SHOPING CENTAR VIKROLI COURT VIKROLI MUMBAI 83",
    "contact_number": 9820456678,
    "email": "patil_jayshree[dot]yahoo[dot]co[dot]in",
    "map_link": "https://maps.app.goo.gl/Sj7zq6jHumAfXeTQ9",
    "latitude": 19.114609,
    "longitude": 72.8853255
  },
  {
    "district": "Mumbai Suburban",
    "taluka": "Kurla",
    "village": "bhandup",
    "incharge_name": "KIRAN SANTRAM VISHWAKARMA",
    "address": "COMMAN SERVICE CENTRE SHOP NO.02,VIJAY NIWAS JANGAL MANGAL ROAD NEAR POPAT HARWALA,NR BHATTIPADA FISH MARKET BHANDUP WEST\n",
    "contact_number": 8779097454,
    "email": "kiran[dot]svishwakarma[dot]gmail[dot]com",
    "map_link": "https://maps.app.goo.gl/zh6cHRCN15TJnWYq5",
    "latitude": 19.1147055,
    "longitude": 72.8544256
  },
  {
    "district": "Mumbai Suburban",
    "taluka": "Kurla",
    "village": "chembur",
    "incharge_name": "Binod Ramdhani Gupta",
    "address": "Pritam Technology Services Pvt Ltd SHOP NO-2 GROUND FLOOR N.G. ACHARYA MARG BEHIND KHARDEV NAGAR BUS STOP KHARDEV NAGAR GHATLA CHEMBUR\n",
    "contact_number": 9324329286,
    "email": "binodgupta1982[dot]gmail[dot]com",
    "map_link": "https://maps.app.goo.gl/qBZWYaWPSEn2gvVA9",
    "latitude": 19.057551,
    "longitude": 72.9088422
  },
  {
    "district": "Mumbai Suburban",
    "taluka": "Kurla",
    "village": "BHANDUP",
    "incharge_name": "SANTOSH SHIVRAM SALUNKHE",
    "address": "SHUBHAM STORE 1/2 SHIVNARI SADAN TULSHET PADA GAVDEVI ROAD PATKAR COMPOUND\n",
    "contact_number": 9702449593,
    "email": "ravi[dot]soham79[dot]gmail[dot]com",
    "map_link": "https://maps.app.goo.gl/XPzgurHAqZzKPRBN7",
    "latitude": 19.0576377,
    "longitude": 72.8676426
  },
  {
    "district": "Mumbai Suburban",
    "taluka": "Kurla",
    "village": "mankhurd",
    "incharge_name": "RAVINDRA RAJARAM GAWAS",
    "address": "Laxmi Enterprises Shop No-1 Hanuman Chawl Opp SPPL Building Maharashtra Nagar,Mankhurd\n",
    "contact_number": 9220105579,
    "email": "ravigawas975[dot]gmail[dot]com",
    "map_link": "https://maps.app.goo.gl/qm5Y1Wc4anJug1NA7",
    "latitude": 19.0502124,
    "longitude": 72.9331666
  },
  {
    "district": "Mumbai Suburban",
    "taluka": "Kurla",
    "village": "Powai",
    "incharge_name": "SHARAD TUKARAM KADAM",
    "address": "EXPERT COMPUTER EDUCATION 004, BLDG NO.13/D, SANGHARSH NAGAR CHANDIVALI FARM ROAD\n",
    "contact_number": 8108418213,
    "email": "sharadkadam1984[dot]gmail[dot]com",
    "map_link": "https://maps.app.goo.gl/2by2ukmEc4c7Gzyq8",
    "latitude": 19.1080011,
    "longitude": 72.9027531
  },
  {
    "district": "Mumbai Suburban",
    "taluka": "Kurla",
    "village": "CHEMBUR",
    "incharge_name": "Harishchandra Dhondu Bodekar",
    "address": "Maha e-seva Kendra Shop No:1 V.N.Purav Marg Opposite Annabhau Sathe Garden Suman Nagar\n",
    "contact_number": 9372094283,
    "email": "harishchandra8371[dot]gmail[dot]]com",
    "map_link": "https://maps.app.goo.gl/X19D8Y318fngGZ7P9",
    "latitude": 19.1080877,
    "longitude": 72.8615535
  },
  {
    "district": "Mumbai Suburban",
    "taluka": "Kurla",
    "village": "Sakinaka ",
    "incharge_name": "Rahul Mahadev Kawale",
    "address": "Shop number 5 Bank of Baroda behind Shiv Sagar sweets near Naaz medical Andheri Kurla Road jarimari Mumbai 72",
    "contact_number": 9702390189,
    "email": "rahulkalwale22[dot]gmail[dot]com",
    "map_link": "https://maps.app.goo.gl/wFxPdLfize5Dhtcq6",
    "latitude": 19.1002328,
    "longitude": 72.8829336
  },
  {
    "district": "Mumbai Suburban",
    "taluka": "Kurla",
    "village": "BHANDUP",
    "incharge_name": "DIKSHA DINESH BHOJANE.",
    "address": "Laxmi Narayan Mistry Chwal 1/1 P.N.Road Hanuman Teample Hanuman Nagar\n",
    "contact_number": 7039352496,
    "email": "drdbhojane[dot]gmail[dot]com",
    "map_link": "https://maps.app.goo.gl/z4sHYj86axsAb91a9",
    "latitude": 19.1002822,
    "longitude": 72.8674839
  },
  {
    "district": "Mumbai Suburban",
    "taluka": "Kurla",
    "village": "CHEMBUR",
    "incharge_name": "Sandeep Suresh Sawant",
    "address": "Shree Sai Computer Institute GuruDatta Rahivashi sangh Khardev Nagar Ghatla Chembur Mumbai Near NG Acharya College\n",
    "contact_number": 9892429978,
    "email": "sandeepsawant16[dot]gmail[dot]com",
    "map_link": "https://maps.app.goo.gl/nTerMikkvyFBsDzW8",
    "latitude": 19.0571645,
    "longitude": 72.9086414
  },
  {
    "district": "Mumbai Suburban",
    "taluka": "Kurla",
    "village": "BHANDUP",
    "incharge_name": "SHAFI AHMED ABDUL AZIZ SHAIKH",
    "address": "Cyber Network Shop No 3 Jokim Compound P N Road Bhandup west\n",
    "contact_number": 9322536239,
    "email": "alwayshereatyou[dot]gmail[dot]com",
    "map_link": "https://maps.app.goo.gl/cTzdbqSBw9Lqxys3A",
    "latitude": 19.1399507,
    "longitude": 72.9260875
  },
  {
    "district": "Mumbai Suburban",
    "taluka": "Kurla",
    "village": "bhandup",
    "incharge_name": "Anil Kumar Yadav",
    "address": "Anil Communication 8, Neerabai Shopping Center Village Road Opp Skyline Building Bhandup West\n",
    "contact_number": 9221322208,
    "email": "anilk2008[dot]gmail[dot]com",
    "map_link": "https://maps.app.goo.gl/uWNoRLK1MSrzCYHz5",
    "latitude": 19.1458829,
    "longitude": 72.9306269
  },
  {
    "district": "Mumbai Suburban",
    "taluka": "Kurla",
    "village": "kurla",
    "incharge_name": "HARI DADA LADE",
    "address": "LADE GRAHAK SEVA KENDRA SHOP NO 16 SARVAMMA CHAWL, NEW MILL ROAD RAMDAS CHOWK KURLA WEST\n",
    "contact_number": 9096977769,
    "email": "harilade10[dot]gmail[dot]com",
    "map_link": "https://maps.app.goo.gl/DzvRKauB2u8A1KPB7",
    "latitude": 19.0631286,
    "longitude": 72.8755287
  },
  {
    "district": "Mumbai Suburban",
    "taluka": "Kurla",
    "village": "MULUND",
    "incharge_name": "Mija Kutti",
    "address": "LAKAISH E-GOVERNANCE CENTRE 21, SHARMILA BALRAJESHWAR ROAD OPP. MODEL TOWN\n",
    "contact_number": 9892517811,
    "email": "vattekatte[dot]gmail[dot]com",
    "map_link": "https://maps.app.goo.gl/SVpvGpu2jK9QHX5c9",
    "latitude": 19.184371,
    "longitude": 72.942502
  },
  {
    "district": "Mumbai Suburban",
    "taluka": "Kurla",
    "village": "KURLA",
    "incharge_name": "Chetan Ajit Chavan",
    "address": "1/1 YASHWANT COPMPOUND NEAR DATTA MANDIR LBS ROAD KURLA WEST ",
    "contact_number": 9769899112,
    "email": "mahaesevakendrakurla[dot]gmail[dot]com",
    "map_link": "https://maps.app.goo.gl/5s23jGKj5Ku4pSiP9",
    "latitude": 19.0710788,
    "longitude": 72.8699017
  },
  {
    "district": "Mumbai Suburban",
    "taluka": "Kurla",
    "village": "GHATLOPAR",
    "incharge_name": "SUNITA NANDARAM TAMBE",
    "address": "SHOP NO 3 MUNCIPAL SHOPING CENTRE SHOP NO 3 MUNCIPAL SHOPPING CENTRE S G BARVENAGR BHAJI MARKET BHATWADI,GHATKOPAR(W)\n",
    "contact_number": 9870803333,
    "email": "nandudadantambe[dot]gmail[dot]com",
    "map_link": "https://maps.app.goo.gl/6tBF5GMVmAoJV7b47",
    "latitude": 19.090674,
    "longitude": 72.9034489
  },
  {
    "district": "Mumbai Suburban",
    "taluka": "Kurla",
    "village": "GHATKOPAR",
    "incharge_name": "Mahendra Mahadeo Redkar",
    "address": "MAHENDRA TOURISM ENTERPRISES 7/9 R B KADAM MARG BHATWADI GHATKOPAR W\n",
    "contact_number": 7506045045,
    "email": "omsainiti[dot]gmail[dot]com",
    "map_link": "https://maps.app.goo.gl/65etiSq6BEc8diTJ9",
    "latitude": 19.0906942,
    "longitude": 72.9034489
  },
  {
    "district": "Mumbai Suburban",
    "taluka": "Kurla",
    "village": "Powai",
    "incharge_name": "Shubhangi Sandeep Dighe",
    "address": "dighe enterprises 2 saki vihar road l and t shivshakti nagar",
    "contact_number": 9773491052,
    "email": "shubhangi_s86[dot]yahoo[dot]co[dot]in",
    "map_link": "https://maps.app.goo.gl/1mphTZpPMA2qCxr26",
    "latitude": 19.1233465,
    "longitude": 72.8901492
  },
  {
    "district": "Mumbai Suburban",
    "taluka": "Kurla",
    "village": "KURLA",
    "incharge_name": "Harischandra Jaysing Chalke",
    "address": "Shop No. 3, Opp Laxmi Niwas, M. N. Road, Bail Bazar, Kurla (W)",
    "contact_number": 9594990146,
    "email": "harish29910[dot]gmail[dot]com",
    "map_link": "https://maps.app.goo.gl/HARTAPAdCH2DfkxH8",
    "latitude": 19.1234331,
    "longitude": 72.8489496
  },
  {
    "district": "Mumbai Suburban",
    "taluka": "Kurla",
    "village": "GHATKOPAR",
    "incharge_name": "KOMAL HIRACHANDRA SURYAWANSHI",
    "address": "aaple sarkhar seva kendra room no.02 mumbai bank ASALFA VILLAGE",
    "contact_number": 913668495,
    "email": "komalwanshi08[dot]gmail[dot]com",
    "map_link": "https://maps.app.goo.gl/bkDZF866juR1ZFCw9",
    "latitude": 19.0934116,
    "longitude": 72.8993885
  },
  {
    "district": "Mumbai Suburban",
    "taluka": "Kurla",
    "village": "GHATKOPAR",
    "incharge_name": "SWAPNIL PRAKASH PANCHAL",
    "address": "UNIQUE COMPUTERS AND CYBER CAFE 1 SHOP NO. 1, SINDHUDURG SOCIETY, DHOBIGHAT PIPE LINE NEAR HINDI BAL VIDYA MANDIR, ASALFA VILLAGE, GHATKOPAR WEST",
    "contact_number": 8422907545,
    "email": "unique19913[dot]gmail[dot]com",
    "map_link": "https://maps.app.goo.gl/sjjpWnMRcBaLfH6D8",
    "latitude": 19.0975578,
    "longitude": 72.8949388
  },
  {
    "district": "Mumbai Suburban",
    "taluka": "Kurla",
    "village": "GHATKOPAR",
    "incharge_name": "Shree Devi Muttu Mariyyaman Seva Samiti",
    "address": "shree devi muttu mariamma seva samiti (reg.) v.n marg nera b.m.c school kamraj nagar,ghatkopar (east)",
    "contact_number": 8828287787,
    "email": "sdmassr[dot]1[dot]gmail[dot]com",
    "map_link": "https://maps.app.goo.gl/mrZpE4DhaXEwF4R47",
    "latitude": 19.0723737,
    "longitude": 72.9115528
  },
  {
    "district": "Mumbai Suburban",
    "taluka": "Andheri",
    "village": "Marol",
    "incharge_name": "NEELU AMARENDRA KUMAR SINGH",
    "address": "VAISHNO ENTERPRISES VAISHNO ENTERPRISES 3753 adarash Nagar, The Great Indira Nagar SAI RECEDANCY HOTEL ,Marol Pieline,",
    "contact_number": 9930098428,
    "email": "sbombay2005[dot]gmail[dot]com",
    "map_link": "https://maps.app.goo.gl/JLWCL2fhQPtJHYiZ7",
    "latitude": 19.0724282,
    "longitude": 72.8935281
  },
  {
    "district": "Mumbai Suburban",
    "taluka": "Andheri",
    "village": "mogra",
    "incharge_name": "VIDHI VINOD TAMBE",
    "address": "9316 BANDEKAR CHAWL PUMP HOUSE HANUMAN NAGAR JIJAMATA MARG ANDHERI EAST",
    "contact_number": 9819504128,
    "email": "shreecomputers237[dot]gmail[dot]com",
    "map_link": "https://maps.app.goo.gl/qvuQnNoVX8Du4FB77",
    "latitude": 19.1248805,
    "longitude": 72.8554104
  },
  {
    "district": "Mumbai Suburban",
    "taluka": "Andheri",
    "village": "marol",
    "incharge_name": "CHANDRAKANT GOVIND RAJPURE",
    "address": "SUDHIR COMMUNICATION, SHOP NO 2 FIRST FLOOR SAGBAUG ANDHERI KURLA ROAD OPP MAHALAXMI HOTEL MAROL ANDHERI EAST",
    "contact_number": 9320485870,
    "email": "crajpure[dot]gmail[dot]com",
    "map_link": "https://maps.app.goo.gl/YkcUcu5c6PBPEJfBA",
    "latitude": 19.1072516,
    "longitude": 72.8842044
  },
  {
    "district": "Mumbai Suburban",
    "taluka": "Andheri",
    "village": "majas",
    "incharge_name": "Anil Shitole",
    "address": "Gratitude Foundation Shop No.1, 16 A, Shahjeevan Society Vallabhai Patel Raod PMGP Colony Poonam Nagar",
    "contact_number": 8169992467,
    "email": "anilsable[dot]rediffmail[dot]com",
    "map_link": "https://maps.app.goo.gl/DsqKRwrtNRFBbby27",
    "latitude": 19.1340906,
    "longitude": 72.8700168
  },
  {
    "district": "Mumbai Suburban",
    "taluka": "Kurla",
    "village": "GHATKOPAR",
    "incharge_name": "Anil Vishwakarma",
    "address": "SHOP NO. 15/B, NEELYOG SQUARE OPP. ICICI BANK, R.B. MEHTA MARG, PATEL CHOWK GHATKOPAR EAST",
    "contact_number": 9223922321,
    "email": "kendraseva2006[dot]gmail[dot]com",
    "map_link": "https://maps.app.goo.gl/eVxt3fWHDA84qo6L6",
    "latitude": 19.0823347,
    "longitude": 72.9066387
  },
  {
    "district": "Mumbai Suburban",
    "taluka": "Kurla",
    "village": "GHATKOPAR",
    "incharge_name": "MANGESH DASHRATH RAJE",
    "address": "UG-5 SUCHITA BUSINESS PARK Y S JADHAV MARG STATION ROAD NEAR PATEL CHOWK HANUMAN TEMPLE GHATKOPAR EAST",
    "contact_number": 9757144448,
    "email": "rajesevakendra[at]gmail[dot]com",
    "map_link": "https://maps.app.goo.gl/WwhmTUnctSiouVX58",
    "latitude": 19.0851207,
    "longitude": 72.9100444
  },
  {
    "district": "Mumbai Suburban",
    "taluka": "Kurla",
    "village": "KURLA",
    "incharge_name": "MAHESH SHANTILAL SURYAWANSHI",
    "address": "SHEETAL SERVICING SHOP NO A 341 KOHINOOR ROAD OPPOSITE KOHINOOR INTERNATIONAL SCHOOL KURLA WEST",
    "contact_number": 8080904075,
    "email": "maheshsuryawanshi46[at]gmail[dot]com",
    "map_link": "https://maps.app.goo.gl/BvETEMJ41mg6pQCVA",
    "latitude": 19.0851508,
    "longitude": 72.8997447
  },
  {
    "district": "Mumbai Suburban",
    "taluka": "Kurla",
    "village": "BHANDUP",
    "incharge_name": "AKSHATA KIRAN PHADATARE",
    "address": "02, SANTOSHI NIWAS CHS LTD ASHOK NAGAR DATTA MANDIR ROAD BHANDUP EAST",
    "contact_number": 9819531450,
    "email": "bhanduponline1[dot]gmail[dot]com",
    "map_link": "https://maps.app.goo.gl/boL7RPv3t2U1UFDT8",
    "latitude": 19.1368873,
    "longitude": 72.9363542
  },
  {
    "district": "Mumbai Suburban",
    "taluka": "Kurla",
    "village": "VIKROLI",
    "incharge_name": "IMRAN AKBAR HUSSAIN SHAIKH",
    "address": "IMPERIAL COMMUNICATION CENTER 5B/149/2529, TAGORE NAGAR VIKHROLI EAST",
    "contact_number": 8657347725,
    "email": "imran_shaikh_f9[at]yahoo[dot]co[dot]uk",
    "map_link": "https://maps.app.goo.gl/6HowGyiS5BH8DJRw7",
    "latitude": 19.1198883,
    "longitude": 72.9390897
  },
  {
    "district": "Mumbai Suburban",
    "taluka": "Kurla",
    "village": "VIKROLI",
    "incharge_name": "BALAJI TANGWEL NADAR",
    "address": "Balaji Enterprises 7 Station Road St.Joseph Church Compound Vikhroli West",
    "contact_number": 9137105066,
    "email": "nadarbalaji[dot]yahoo[dot]com",
    "map_link": "https://maps.app.goo.gl/SxxKhnqdEjKfGnc46",
    "latitude": 19.1199184,
    "longitude": 72.92879
  },
  {
    "district": "Mumbai Suburban",
    "taluka": "Kurla",
    "village": "CHEMBUR",
    "incharge_name": "Nandakishor Gupta",
    "address": "S.N. Graphics Shop No.34, Janta Market N.G. Acharya Marg Near Chembur Railway Station Chembur",
    "contact_number": 9323147764,
    "email": "cptncharlie41[dot]gmail[dot]com",
    "map_link": "https://maps.app.goo.gl/peRryvFVe36YFspe7",
    "latitude": 19.0629801,
    "longitude": 72.8991625
  },
  {
    "district": "Mumbai Suburban",
    "taluka": "Kurla",
    "village": "VIKROLI",
    "incharge_name": "ANAND HARI MUSALE",
    "address": "ANAND TYPING & COMPUTER INSTITUTE 10, SHOPPING LANE, ROAD NO 6` NR HOTEL SUJATA AMRUT NAGAR, PARK SITE ROAD",
    "contact_number": 9892457635,
    "email": "anand[dot]typing[dot]gmail[dot]com",
    "map_link": "https://maps.app.goo.gl/RDoHYWZaRk1Laskb7",
    "latitude": 19.103909,
    "longitude": 72.911898
  },
  {
    "district": "Mumbai Suburban",
    "taluka": "Kurla",
    "village": "VIKAROLI",
    "incharge_name": "Jyotiram Balkrishna Jadhav",
    "address": "Shree Sai Computer Institute, Shop No.1, Beside Police Station, Surya Nagar, L.B.S. Marg, Beside Police Stanton Vikhroli (W)",
    "contact_number": "8369710771/9833153760",
    "email": "shreesaiinstitute[dot]gmail[dot]com",
    "map_link": "https://maps.app.goo.gl/Wy1pj9FArAjp6DVc8",
    "latitude": 19.1178629,
    "longitude": 72.9240791
  },
  {
    "district": "Mumbai Suburban",
    "taluka": "Kurla",
    "village": "MANKHURD",
    "incharge_name": "DEENMOHD NOORUDDIN QURESHI",
    "address": "M M INDUSTRIES PMGP COLONY OPP MOHITE PATIL SCHOOL MANKHURD",
    "contact_number": 8425048510,
    "email": "qureshideenmohd[dot]gmail[dot]com",
    "map_link": "https://maps.app.goo.gl/G4ivG1if269pMHdE7",
    "latitude": 19.0526033,
    "longitude": 72.9325833
  },
  {
    "district": "Mumbai Suburban",
    "taluka": "Kurla",
    "village": "mankhurd",
    "incharge_name": "Ashok Vasant Ingale",
    "address": "SHREE NAVNAATH MULTISERVICES SHOP NO 20 E/3 VRINDAVAN MUKUND STAF SOCIETY LBS MARG, POLICE LINE ROAD PARSHIWADI GHATKOPAR WEST",
    "contact_number": 8422953283,
    "email": "ashokvi2020[dot]gmail[dot]com",
    "map_link": "https://maps.app.goo.gl/6x4kjbXt3kGjSVwr8",
    "latitude": 19.091777,
    "longitude": 72.8946729
  },
  {
    "district": "Mumbai Suburban",
    "taluka": "Kurla",
    "village": "kurla",
    "incharge_name": "Shweta Tayade",
    "address": "SNT E-SEVA KENDRA OFFICE NO-11, BLDG NO-10, PREM SAGAR CHS GHATKOPAR MANKHURD LINK ROAD NEAR BANK OF BARODA INDIAN OIL NAGAR\n",
    "contact_number": 9323027270,
    "email": "advsnt2013[dot]gmail[dot]com",
    "map_link": "https://maps.app.goo.gl/CfFhPBU6EdZy4dck6",
    "latitude": 19.0846494,
    "longitude": 72.9056858
  },
  {
    "district": "Mumbai Suburban",
    "taluka": "Kurla",
    "village": "Govandi",
    "incharge_name": "Vilas Namdev Pagare",
    "address": "Maha- E- Seva Kendra 2 Near Govandi Station Tata Nagar Govandi",
    "contact_number": 916766026,
    "email": "vilaspagare09[dot]gmail[dot]com",
    "map_link": "https://maps.app.goo.gl/VR3H1wcRFoWktocz7",
    "latitude": 19.0846988,
    "longitude": 72.8902361
  },
  {
    "district": "Mumbai Suburban",
    "taluka": "Kurla",
    "village": "KANJUR MARG",
    "incharge_name": "Sachin Jambhekar",
    "address": "Vipul Pandurang Kale 1/1 Kanjurmarg Village Road Near Bajarang Hotel Gomes Colony",
    "contact_number": 9820746783,
    "email": "sachinjambekar1978[dot]gmail[dot]com",
    "map_link": "https://maps.app.goo.gl/eErmjBzhjC7j2qQt9",
    "latitude": 19.1309134,
    "longitude": 72.9328811
  },
  {
    "district": "Mumbai Suburban",
    "taluka": "Kurla",
    "village": "MANKHURD",
    "incharge_name": "SHAYNAAZ SAMEER SHAIKH",
    "address": "SHIBIN ENTERPRISES SHOP NO. 1 JANTA NAGAR 30 FEET ROAD MANKHURD",
    "contact_number": 8652348006,
    "email": "shilpatemkar[dot]gmail[dot]com",
    "map_link": "https://maps.app.goo.gl/Zf8YUZ9nZ6bdJZd9A",
    "latitude": 19.0543181,
    "longitude": 72.9299645
  },
  {
    "district": "Mumbai Suburban",
    "taluka": "Kurla",
    "village": "KURLA",
    "incharge_name": "Kailash P Ahire",
    "address": "Kamanii Seva Kendra K1, Jai Ambe Society, Sunder Baug Kamani Behind Pheonix Market City Kurla West",
    "contact_number": 9699835520,
    "email": "ahiresejal213[dot]gmail[dot]com",
    "map_link": "https://maps.app.goo.gl/3yboc4rbQCrd7bQk9",
    "latitude": 19.0543625,
    "longitude": 72.9119398
  },
  {
    "district": "Mumbai Suburban",
    "taluka": "Kurla",
    "village": "CHEMBUR",
    "incharge_name": "Aruna Suhas Mane",
    "address": "Kunbi Samaj Bhavan Ground Floor, N. G. Acharya Marg, Khardev Nagar, Ghatla Near Durga Devi Maidan Chembur, Mumbai",
    "contact_number": 9594993662,
    "email": "tulsinfotech[dot]gmail[dot]com",
    "map_link": "https://maps.app.goo.gl/z9GRKfVqCj4eZz9Z8",
    "latitude": 19.0568795,
    "longitude": 72.9085968
  },
  {
    "district": "Mumbai Suburban",
    "taluka": "ANDHERI",
    "village": "KONDIVITA",
    "incharge_name": "Arun Dayaram Pandey",
    "address": "RISHI ENTERPRISES CST 128 PANDEY CHAWL OPP TUNGA MEDICAL TUNGA VILLAGE SAKI VIHAR ROAD POWAI NEAR OXFROD CHEMBER",
    "contact_number": 9146026569,
    "email": "arunpandeyy[dot]gmail[dot]com",
    "map_link": "https://maps.app.goo.gl/f7WPJJGMsFyxdHZC8",
    "latitude": 19.0569662,
    "longitude": 72.8673972
  },
  {
    "district": "Mumbai Suburban",
    "taluka": "Kurla",
    "village": "GHATKOPAR",
    "incharge_name": "SAGAR DAYANAND KAMBLE",
    "address": "Sagar enterprises Onlinne Services near bhim jyot school ramabai colony ghatkopar\n",
    "contact_number": 8652573569,
    "email": "sagar19494[dot]gmail[dot]com",
    "map_link": "https://maps.app.goo.gl/V27XkbL5Lbn7cJYk7",
    "latitude": 19.0829221,
    "longitude": 72.9097613
  },
  {
    "district": "Mumbai Suburban",
    "taluka": "Andheri",
    "village": "DANDA",
    "incharge_name": "Nanarao Sakharaji Tayade",
    "address": "PRIYA NAGAR DANDA VILLAGE  KHAR ROAD",
    "contact_number": 9594859808,
    "email": "nstmahaseva[dot]rediffmail[dot]com",
    "map_link": "https://maps.app.goo.gl/M88h6aEnVZ91nVkW7",
    "latitude": 19.0746509,
    "longitude": 72.8275581
  },
  {
    "district": "Mumbai Suburban",
    "taluka": "Andheri",
    "village": "JOGESHWARI",
    "incharge_name": "Narayan Ganpat Sawant",
    "address": "Shop no. 14 /B,\nDurga Premises CHS LTD , JVLR,  Durga Nagar, Andheri  East, Mumbai 400093",
    "contact_number": 9324028117,
    "email": "ng_sawant[dot]yahoo[dot]com",
    "map_link": "https://maps.app.goo.gl/xUVF7MFgrN5ouSQS9",
    "latitude": 19.0747004,
    "longitude": 72.8121084
  },
  {
    "district": "Mumbai Suburban",
    "taluka": "Andheri",
    "village": "SANTACRUZ",
    "incharge_name": "Satish Pandurang Gawai",
    "address": "Above Jumbo King Vadapav, Vakola Signal, Santacruz(E)",
    "contact_number": 7738863274,
    "email": "deepak[dot]auti85[dot]gmail[dot]com",
    "map_link": "https://maps.app.goo.gl/oYVMkMh8JwgNQ5PBA",
    "latitude": 19.0747792,
    "longitude": 72.8121084
  },
  {
    "district": "Mumbai Suburban",
    "taluka": "Andheri",
    "village": "JOGESHWARI",
    "incharge_name": "VILAS BAJIRAO JADHAV",
    "address": "VILAS JADHAV DIGITAL SEVA KENDRA SHOP NO. 4, OLD ABBA APT NARAYAN SHETTY CHAWL NEAR SABRI MASJID YADAV NAGAR, SAHAKAR ROAD, NEAR HAMUMAN MANDIR\n",
    "contact_number": 8169307211,
    "email": "vbjadhav15[dot]gmail[dot]com",
    "map_link": "https://maps.app.goo.gl/f3YLqz6e7pgKk1Wn6",
    "latitude": 19.0749626,
    "longitude": 72.750307
  },
  {
    "district": "Mumbai Suburban",
    "taluka": "Andheri",
    "village": "BANDRA",
    "incharge_name": "Murlidhar Patil",
    "address": "2/B-GROUND -5 MAHARASHTRA NAGAR SRA BANDRA EAST",
    "contact_number": 9768392170,
    "email": "murlipatil1978[dot]gmail[dot]com",
    "map_link": "https://maps.app.goo.gl/fFiivhBGAiE6RqqZ9",
    "latitude": 19.0596165,
    "longitude": 72.8451844
  },
  {
    "district": "Mumbai Suburban",
    "taluka": "Andheri",
    "village": "SANTACRUZ",
    "incharge_name": "KIRAN MAHENDRA MORE",
    "address": "ICON CLASSES, SHOP NO.1, RAJPUT SOCIETY VAKOLA VILLAGE ROAD NEAR BOWLEKAR GYM SATACRUZ EAST",
    "contact_number": 9821992952,
    "email": "kiranmore84[dot]gmail[dot]com",
    "map_link": "https://maps.app.goo.gl/TYEeEKzmmeq2sENE7",
    "latitude": 19.059666,
    "longitude": 72.8297347
  },
  {
    "district": "Mumbai Suburban",
    "taluka": "Andheri",
    "village": "KALINA",
    "incharge_name": "DEVESHRI RAVI POOJARI",
    "address": "Bhimchaya Sanskrutik Kendra Kapil Vastu Buddh Vihar CST Road Kalina",
    "contact_number": 9757354361,
    "email": "deveshri[dot]more[dot]yahoo[dot]com",
    "map_link": "https://maps.app.goo.gl/ThVcVkfh2K6unosK7",
    "latitude": 19.0746422,
    "longitude": 72.8607923
  },
  {
    "district": "Mumbai Suburban",
    "taluka": "Andheri",
    "village": "VAKOLA",
    "incharge_name": "SHANTISWARUP RAMPALAT GUPTA",
    "address": "Shivaayenterprises Shop no.1 New Agripada Near Axis Bank ATM Santacruze East",
    "contact_number": 7738707738,
    "email": "sswaroop5555[dot]gmail[dot]com",
    "map_link": "https://maps.app.goo.gl/yg6MtWpTpwCfKR1W6",
    "latitude": 19.0746574,
    "longitude": 72.8582174
  },
  {
    "district": "Mumbai Suburban",
    "taluka": "Andheri",
    "village": "SANTACRUZ ",
    "incharge_name": "AKASH SHIVAJI LONDHE",
    "address": "Salim Garage, Gazdhar Bandh, Rajiv Nagar, Santacruz West, Gazdhar Bandh Road, Mumbai, Mumbai Suburban, Maharashtra, 400054",
    "contact_number": 8097687929,
    "email": "londhe[dot]akash425[at]gmail[dot]com",
    "map_link": "https://maps.app.goo.gl/hHo3GtqKR63Gccmq9",
    "latitude": 19.0746824,
    "longitude": 72.8504926
  }
]